{
  "code": "T7",
  "name": "Tramway T7",
  "color": "#7F1F46",
  "operator": "RATP / IDFM",
  "opened": "2013-11-16",
  "extension_orly": "2024-06-24",
  "source": "IDFM Open Data + Wikipédia FR",
  "fetched_at": "2026-06-12",
  "stations_count": 15,
  "stations": [
    {
      "name": "Villejuif - Louis Aragon",
      "lat": 48.7873,
      "lng": 2.3623,
      "is_terminus": true,
      "correspondances": [
        "M7",
        "Bus 162",
        "Bus 185"
      ]
    },
    {
      "name": "Domaine Chérioux",
      "lat": 48.7794,
      "lng": 2.3743,
      "is_terminus": false,
      "correspondances": []
    },
    {
      "name": "Moulin Vert",
      "lat": 48.7706,
      "lng": 2.3792,
      "is_terminus": false,
      "correspondances": []
    },
    {
      "name": "Lamartine",
      "lat": 48.7639,
      "lng": 2.3821,
      "is_terminus": false,
      "correspondances": []
    },
    {
      "name": "La Fraternelle",
      "lat": 48.7582,
      "lng": 2.3854,
      "is_terminus": false,
      "correspondances": []
    },
    {
      "name": "Saarinen",
      "lat": 48.7525,
      "lng": 2.3899,
      "is_terminus": false,
      "correspondances": []
    },
    {
      "name": "Bretagne",
      "lat": 48.7497,
      "lng": 2.3931,
      "is_terminus": false,
      "correspondances": []
    },
    {
      "name": "Rouget de Lisle",
      "lat": 48.7472,
      "lng": 2.3993,
      "is_terminus": false,
      "correspondances": []
    },
    {
      "name": "Porte de Thiais",
      "lat": 48.7456,
      "lng": 2.4053,
      "is_terminus": false,
      "correspondances": [
        "Bus 393"
      ]
    },
    {
      "name": "Auguste Perret",
      "lat": 48.7435,
      "lng": 2.4116,
      "is_terminus": false,
      "correspondances": []
    },
    {
      "name": "Les Saules",
      "lat": 48.7402,
      "lng": 2.4187,
      "is_terminus": false,
      "correspondances": []
    },
    {
      "name": "Stade Maurice Baquet",
      "lat": 48.7361,
      "lng": 2.4218,
      "is_terminus": false,
      "correspondances": []
    },
    {
      "name": "Croix de l'Épinette",
      "lat": 48.7302,
      "lng": 2.4218,
      "is_terminus": false,
      "correspondances": []
    },
    {
      "name": "Cœur d'Orly",
      "lat": 48.7274,
      "lng": 2.4001,
      "is_terminus": false,
      "correspondances": []
    },
    {
      "name": "Aéroport d'Orly",
      "lat": 48.7251,
      "lng": 2.3653,
      "is_terminus": true,
      "correspondances": [
        "M14",
        "Orlybus",
        "Orlyval"
      ]
    }
  ],
  "published": true
}
